{
    "locations": [
        {
            "name": "Arabian Ranches",
            "lat": 25.046465814179655,
            "long": 55.26734518742172
        },
        {
            "name": "Downtown Dubai",
            "lat": 25.1959145147664,
            "long": 55.27532286088195
        },
        {  
            "name": "Mina rashid",
            "lat": 25.25885128075637,
            "long": 55.27898175690295
        },
        {
            "name": "Dubai Marina",
            "lat": 25.085441849115,
            "long": 55.14291806754252
        },
        {
            "name": "Palm Jumeirah",
            "lat": 25.11388306780698,
            "long": 55.138863151406284
        },
        {
            "name": "Business Bay",
            "lat": 25.186679393788573,
            "long": 55.267399607593646
        },
        {
            "name": "Jebel Ali",
            "lat": 24.927181534719026,
            "long": 55.11093167218052
        },
        {
            "name": "Dubai Media City",
            "lat": null,
            "long": null
        },
        {
            "name": "Sheikh Zayed Road",
            "lat": 25.06953649865182,
            "long": 55.13517086157896
        },
        {
            "name": "Deira", 
            "lat": 25.252053172844246,
            "long": 55.320742205741546
        },
        {
            "name": "Al Barsha",
            "lat": 25.09961959634919,
            "long": 55.204477974079325
        },
        {
            "name": "Dubai City",
            "lat": 25.218257209308238,
            "long": 55.27603012385338
        }
    ]
}
