{
    "locations": [
        {
            "name": "Arabian Ranches",
            "lat": 25.046465814179655,
            "long": 55.26734518742172
        },
        {
            "name": "Downtown Dubai",
            "lat": 25.1959145147664,
            "long": 55.27532286088195
        },
        {  
            "name": "Mina rashid",
            "lat": 25.25885128075637,
            "long": 55.27898175690295
        },
        {
            "name": "Dubai Marina",
            "lat": 25.085441849115,
            "long": 55.14291806754252
        },
        {
            "name": "Palm Jumeirah",
            "lat": 25.11388306780698,
            "long": 55.138863151406284
        },
        {
            "name": "Business Bay",
            "lat": 25.186679393788573,
            "long": 55.267399607593646
        },
        {
            "name": "Jebel Ali",
            "lat": 24.927181534719026,
            "long": 55.11093167218052
        },
        {
            "name": "Dubai Media City",
            "lat": null,
            "long": null
        },
        {
            "name": "Sheikh Zayed Road",
            "lat": 25.06953649865182,
            "long": 55.13517086157896
        },
        {
            "name": "Deira", 
            "lat": 25.252053172844246,
            "long": 55.320742205741546
        },
        {
            "name": "Al Barsha",
            "lat": 25.09961959634919,
            "long": 55.204477974079325
        },
        {
            "name": "Dubai City",
            "lat": 25.218257209308238,
            "long": 55.27603012385338
        },
        {
            "name": "Dubailand",
            "lat": 25.218257209308238,
            "long": 55.27603012385338
        },
        {
            "name": "Dubai Silicon Oasis",
            "lat": 25.218257209308238,
            "long": 55.27603012385338
        },
        {
            "name": "AKOYA Oxygen",
            "lat": 25.218257209308238,
            "long": 55.27603012385338
        },
        {
            "name": "Jumeirah Village Circle",
            "lat": 25.218257209308238,
            "long": 55.27603012385338
        },
        {
            "name": "Barsha Heights",
            "lat": 25.218257209308238,
            "long": 55.27603012385338
        },
        {
            "name": "Dubai Sports City",
            "lat": 25.218257209308238,
            "long": 55.27603012385338
        },
        {
            "name": "International City",
            "lat": 25.218257209308238,
            "long": 55.27603012385338
        },
        {
            "name": "DAMAC Hills",
            "lat": 25.218257209308238,
            "long": 55.27603012385338
        },
        {
            "name": "Sheikh Zayed Road",
            "lat": 25.218257209308238,
            "long": 55.27603012385338
        },
        {
            "name": "Jumeirah Lake Towers",
            "lat": 25.218257209308238,
            "long": 55.27603012385338
        },
        {
            "name": "Dubai Hills Estate",
            "lat": 25.218257209308238,
            "long": 55.27603012385338
        },
        {
            "name": "MBR City",
            "lat": 25.218257209308238,
            "long": 55.27603012385338
        },
        {
            "name": "Dubai Creek Harbour",
            "lat": 25.218257209308238,
            "long": 55.27603012385338
        },
        {
            "name": "Dubai South",
            "lat": 25.218257209308238,
            "long": 55.27603012385338
        },
        {
            "name": "Arjan",
            "lat": 25.218257209308238,
            "long": 55.27603012385338
        },
        {
            "name": "Motor City",
            "lat": 25.218257209308238,
            "long": 55.27603012385338
        },
        {
            "name": "Meydan City",
            "lat": 25.218257209308238,
            "long": 55.27603012385338
        },
        {
            "name": "Arabian Ranches",
            "lat": 25.218257209308238,
            "long": 55.27603012385338
        },
        {
            "name": "Al Furjan",
            "lat": 25.218257209308238,
            "long": 55.27603012385338
        },
        {
            "name": "Jumeirah Village Triangle",
            "lat": 25.218257209308238,
            "long": 55.27603012385338
        },
        {
            "name": "Jumeirah Golf Estate",
            "lat": 25.218257209308238,
            "long": 55.27603012385338
        },
        {
            "name": "Dubai Investment Park",
            "lat": 25.218257209308238,
            "long": 55.27603012385338
        },
        {
            "name": "Town Square",
            "lat": 25.218257209308238,
            "long": 55.27603012385338
        },
        {
            "name": "JBR",
            "lat": 25.218257209308238,
            "long": 55.27603012385338
        },
        {
            "name": "Al Barari",
            "lat": 25.218257209308238,
            "long": 55.27603012385338
        },
        {
            "name": "DAMAC Lagoons",
            "lat": 25.218257209308238,
            "long": 55.27603012385338
        },
        {
            "name": "Deira",
            "lat": 25.218257209308238,
            "long": 55.27603012385338
        },
        {
            "name": "Dubai Production City",
            "lat": 25.218257209308238,
            "long": 55.27603012385338
        },
        {
            "name": "Emaar Beachfront",
            "lat": 25.218257209308238,
            "long": 55.27603012385338
        },
        {
            "name": "DIFC",
            "lat": 25.218257209308238,
            "long": 55.27603012385338
        },
        {
            "name": "Dubai Canal",
            "lat": 25.218257209308238,
            "long": 55.27603012385338
        },
        {
            "name": "Tilal Al Ghaf",
            "lat": 25.218257209308238,
            "long": 55.27603012385338
        },
        {
            "name": "Jebel Ali",
            "lat": 25.218257209308238,
            "long": 55.27603012385338
        },
        {
            "name": "",
            "lat": 25.218257209308238,
            "long": 55.27603012385338
        },
        {
            "name": "",
            "lat": 25.218257209308238,
            "long": 55.27603012385338
        }
    ]
}
